[
  {
    "name": "Mnomnom üçî",
    "places": [
      {
        "url": "https://www.google.fr/maps/place/Ch%E1%BB%8B+B%E1%BA%A3o/@48.8594635,2.3748207,17z/data=!3m1!4b1!4m5!3m4!1s0x47e66da8812e62a9:0xaafc77b01b0b10d4!8m2!3d48.85946!4d2.3770094",
        "title": "Ch·ªã B·∫£o",
        "openingHours": [
          {
            "day": "samedi",
            "hours": "11:00 to 20:00"
          },
          {
            "day": "dimanche",
            "hours": "Ferm√©"
          },
          {
            "day": "lundi",
            "hours": "11:00 to 20:00"
          },
          {
            "day": "mardi",
            "hours": "11:00 to 20:00"
          },
          {
            "day": "mercredi",
            "hours": "11:00 to 20:00"
          },
          {
            "day": "jeudi",
            "hours": "11:00 to 20:00"
          },
          {
            "day": "vendredi",
            "hours": "11:00 to 20:00"
          }
        ],
        "images": [
          "https://lh5.googleusercontent.com/p/AF1QipPjO0dXL-lvl95cES9TSj_kCSjJ7MiiJ7PovfQV=w1920-h1080-k-no",
          "https://lh5.googleusercontent.com/p/AF1QipMoK5E4E4MhZxSpBFkMcRIDO4EF8RE_fOU6kKfj=w1920-h1080-k-no",
          "https://lh5.googleusercontent.com/p/AF1QipM1uw2CbJClEZaul1h16GQRL9l40CcRniqz3p3Q=w1920-h1080-k-no",
          "https://lh5.googleusercontent.com/p/AF1QipPvH4QH01iEv28-XxHkycHKiwmXjxptn2lId56A=w1920-h1080-k-no",
          "https://lh5.googleusercontent.com/p/AF1QipOhDAioqwuGYuwnXcnDQwmmdUpc1gKMhET9tibU=w1920-h1080-k-no"
        ],
        "placeId": "ChIJqWIugaht5kcR1BALG7B3_Ko",
        "coords": {
          "lat": 48.85946,
          "lng": 2.3770094
        },
        "addressParsed": {
          "neighborhood": "104 bis Bd Voltaire",
          "street": "104 bis Bd Voltaire",
          "city": "Paris",
          "postalCode": "75011",
          "state": null,
          "countryCode": "FR"
        },
        "website": "https://chibao.plugn.shop/",
        "categories": ["Restaurant vietnamien"],
        "distance": 164.89469904889495,
        "timeByFoot": "02:04"
      },
      {
        "url": "https://www.google.fr/maps/place/Chez+Colette/@48.8615363,2.373238,17z/data=!3m1!4b1!4m5!3m4!1s0x47e66dfa1235be11:0x7ec202661d6e501b!8m2!3d48.8615351!4d2.3777255",
        "title": "Chez Colette",
        "openingHours": [
          {
            "day": "samedi",
            "hours": "Ferm√©"
          },
          {
            "day": "dimanche",
            "hours": "Ferm√©"
          },
          {
            "day": "lundi",
            "hours": "12:00 to 15:30"
          },
          {
            "day": "mardi",
            "hours": "12:00 to 15:30"
          },
          {
            "day": "mercredi",
            "hours": "12:00 to 15:30"
          },
          {
            "day": "jeudi",
            "hours": "12:00 to 15:30"
          },
          {
            "day": "vendredi",
            "hours": "12:00 to 15:30"
          }
        ],
        "images": [
          "https://lh5.googleusercontent.com/p/AF1QipM6XVy4Gn4tdZxgZv9DRS0B96UZaRg84aieG5k=w1920-h1080-k-no",
          "https://lh5.googleusercontent.com/p/AF1QipPZ16_Sv3n9hhPuIJiPs5eM6sU_minGFTfngmQ=w1920-h1080-k-no",
          "https://lh5.googleusercontent.com/p/AF1QipMEKtWjwceFs5jzL_GyTZgam4y0gg23oKWmkL0=w1920-h1080-k-no",
          "https://lh5.googleusercontent.com/p/AF1QipMdID0waIyIKyDTwle8gqQ81JZzQGx-jTIhGXI=w1920-h1080-k-no",
          "https://lh5.googleusercontent.com/p/AF1QipP9A9RhgiKLIzMIW1zCO51EXvcyc2JnriI-fdPn=w1920-h1080-k-no"
        ],
        "placeId": "ChIJEb41Evpt5kcRG1BuHWYCwn4",
        "coords": {
          "lat": 48.8615329,
          "lng": 2.3777227
        },
        "addressParsed": {
          "neighborhood": "42 Ave Parmentier",
          "street": "42 Ave Parmentier",
          "city": "Paris",
          "postalCode": "75011",
          "state": null,
          "countryCode": "FR"
        },
        "website": null,
        "categories": ["Restaurant", "Restauration rapide"],
        "distance": 209.0005612587297,
        "timeByFoot": "02:37"
      },
      {
        "url": "https://www.google.fr/maps/place/BON+MIDI/@48.8588136,2.3803776,17z/data=!3m1!4b1!4m5!3m4!1s0x47e66df692d80fc9:0x21b3507e97405af2!8m2!3d48.8588081!4d2.3825735",
        "title": "BON MIDI",
        "openingHours": [
          {
            "day": "samedi",
            "hours": "Ferm√©"
          },
          {
            "day": "dimanche",
            "hours": "Ferm√©"
          },
          {
            "day": "lundi",
            "hours": "11:30 to 14:30"
          },
          {
            "day": "mardi",
            "hours": "11:30 to 14:30"
          },
          {
            "day": "mercredi",
            "hours": "11:30 to 14:30"
          },
          {
            "day": "jeudi",
            "hours": "11:30 to 14:30"
          },
          {
            "day": "vendredi",
            "hours": "11:30 to 14:30"
          }
        ],
        "images": [
          "https://lh5.googleusercontent.com/p/AF1QipP4XXA4d4DbFVRbL2NQwnT193zjg9F3aw3v207I=w1920-h1080-k-no",
          "https://lh5.googleusercontent.com/p/AF1QipN30MXcLp_KecSuTNdup89AO58atjBb-ZuSnFEA=w1920-h1080-k-no",
          "https://lh5.googleusercontent.com/p/AF1QipNgiPqNVOnq-qrTpZw79adzDADThwOAAb2XPrdc=w1920-h1080-k-no",
          "https://lh5.googleusercontent.com/p/AF1QipOVooZTX8YiGwd2TTQ-z-vpoeid1rsammbkNLoY=w1920-h1080-k-no",
          "https://lh5.googleusercontent.com/p/AF1QipPYCe6DhpffuOXYSiKMJ2-j9uIrQMYiigD6rcVb=w1920-h1080-k-no"
        ],
        "placeId": "ChIJyQ_YkvZt5kcR8lpAl35QsyE",
        "coords": {
          "lat": 48.8588101,
          "lng": 2.3825662999999997
        },
        "addressParsed": {
          "neighborhood": "10 Rue Pache",
          "street": "10 Rue Pache",
          "city": "Paris",
          "postalCode": "75011",
          "state": null,
          "countryCode": "FR"
        },
        "website": null,
        "categories": ["Restaurant vietnamien"],
        "distance": 277.5979382910248,
        "timeByFoot": "03:28"
      },
      {
        "url": "https://www.google.fr/maps/place/Poketea/@48.8570793,2.3711937,15z/data=!4m6!3m5!1s0x47e66d53f90244ef:0x9dbb33b36602f95f!8m2!3d48.8571129!4d2.3775101!15sCgdQb2tldGVhWgkiB3Bva2V0ZWGSARNoYXdhaWlhbl9yZXN0YXVyYW504AEA?coh=164777&entry=tt&shorturl=1",
        "title": "Poketea",
        "openingHours": [
          {
            "day": "samedi",
            "hours": "11:30 to 22:00"
          },
          {
            "day": "dimanche",
            "hours": "11:30 to 22:00"
          },
          {
            "day": "lundi",
            "hours": "11:30 to 22:00"
          },
          {
            "day": "mardi",
            "hours": "11:30 to 22:00"
          },
          {
            "day": "mercredi",
            "hours": "11:30 to 22:00"
          },
          {
            "day": "jeudi",
            "hours": "11:30 to 22:00"
          },
          {
            "day": "vendredi",
            "hours": "11:30 to 22:00"
          }
        ],
        "images": [
          "https://lh5.googleusercontent.com/p/AF1QipNPZ42wRcPl1xm0go9jMyWfRZkCA4tvHH2ug_N3=w1920-h1080-k-no",
          "https://lh5.googleusercontent.com/p/AF1QipM80SBwWjCYW_xuJFyWaHUfQijVTlwXImJK9MnN=w1920-h1080-k-no",
          "https://lh5.googleusercontent.com/p/AF1QipMjMXTCjbBaox8P2PpYzthQs1uJY3pZ1BUzSakA=w1920-h1080-k-no",
          "https://lh5.googleusercontent.com/p/AF1QipOVsh6qWqufX_mro1qv0havVFMZD_BMZESa-365=w1920-h1080-k-no",
          "https://lh5.googleusercontent.com/p/AF1QipOEzEeX9E1NUNVp_SKt3GPJ5QubIVUchp4tXSCK=w1920-h1080-k-no"
        ],
        "placeId": "ChIJ70QC-VNt5kcRX_kCZrMzu50",
        "coords": {
          "lat": 48.8571129,
          "lng": 2.3775101
        },
        "addressParsed": {
          "neighborhood": "5 Rue Popincourt",
          "street": "5 Rue Popincourt",
          "city": "Paris",
          "postalCode": "75011",
          "state": null,
          "countryCode": "FR"
        },
        "website": null,
        "categories": ["Restaurant hawa√Øen"],
        "distance": 333.3477415076194,
        "timeByFoot": "04:10"
      },
      {
        "url": "https://www.google.fr/maps/place/TOPP'IN+Poke+Bowl+%26+Bubble+Tea/@48.8573462,2.3791992,17z/data=!3m1!4b1!4m5!3m4!1s0x47e66d5cbdf53fcd:0xb3acd4fe63622d36!8m2!3d48.8573427!4d2.3813879",
        "title": "TOPP'IN Poke Bowl & Bubble Tea",
        "openingHours": [
          {
            "day": "samedi",
            "hours": "11:30 to 18:00"
          },
          {
            "day": "dimanche",
            "hours": "Ferm√©"
          },
          {
            "day": "lundi",
            "hours": "11:30 to 21:30"
          },
          {
            "day": "mardi",
            "hours": "11:30 to 21:30"
          },
          {
            "day": "mercredi",
            "hours": "11:30 to 21:30"
          },
          {
            "day": "jeudi",
            "hours": "11:30 to 21:30"
          },
          {
            "day": "vendredi",
            "hours": "11:30 to 21:30"
          }
        ],
        "images": [
          "https://lh5.googleusercontent.com/p/AF1QipOtobw4WZvHEyNnBSe8F4QF6kIyuGsVgur2eKl7=w1920-h1080-k-no",
          "https://lh5.googleusercontent.com/p/AF1QipOc_iG-DWeiYOKxmuHuKO8Gr3D2JZBENaWvf15-=w1920-h1080-k-no",
          "https://lh5.googleusercontent.com/p/AF1QipMY_ZZmJA7viCto4NYhudvlAvPDxdzMi9rxsk8d=w1920-h1080-k-no",
          "https://lh5.googleusercontent.com/p/AF1QipPTmmAWjgR6RZgvsmQZ_cbok_9YHGX6YqPF8_4C=w1920-h1080-k-no",
          "https://lh5.googleusercontent.com/p/AF1QipPov9sc_4oULXad0nkfi0Mncg2HMmquUxBHNjLZ=w1920-h1080-k-no"
        ],
        "placeId": "ChIJzT_1vVxt5kcRNi1iY_7UrLM",
        "coords": {
          "lat": 48.8573427,
          "lng": 2.3813879
        },
        "addressParsed": {
          "neighborhood": "115 Bd Voltaire",
          "street": "115 Bd Voltaire",
          "city": "Paris",
          "postalCode": "75011",
          "state": null,
          "countryCode": "FR"
        },
        "website": "https://toppin-paris.fr/",
        "categories": ["Bar √† poke", "Restaurant asiatique"],
        "distance": 328.57521480489777,
        "timeByFoot": "04:06"
      },
      {
        "url": "https://www.google.fr/maps/place/Impact+Berliner+Kebap/@48.8583485,2.3782443,17z/data=!4m6!3m5!1s0x47e66d89d7f6d661:0xcb8a084ff12bec7d!8m2!3d48.8618159!4d2.3830094!15sCg5iZXJsaW5lciBrZWJhYloQIg5iZXJsaW5lciBrZWJhYpIBFGZhc3RfZm9vZF9yZXN0YXVyYW504AEA?coh=164777&entry=tt&shorturl=1",
        "title": "Impact Berliner Kebap",
        "openingHours": [
          {
            "day": "samedi",
            "hours": "11:00 to 23:00"
          },
          {
            "day": "dimanche",
            "hours": "Ferm√©"
          },
          {
            "day": "lundi",
            "hours": "11:00 to 23:00"
          },
          {
            "day": "mardi",
            "hours": "11:00 to 23:00"
          },
          {
            "day": "mercredi",
            "hours": "11:00 to 23:00"
          },
          {
            "day": "jeudi",
            "hours": "11:00 to 23:00"
          },
          {
            "day": "vendredi",
            "hours": "11:00 to 23:00"
          }
        ],
        "images": [
          "https://lh5.googleusercontent.com/p/AF1QipOLzTd2dQG2SQqZF5Hw6g9rsvodaIY4u1Csb86K=w1920-h1080-k-no",
          "https://lh5.googleusercontent.com/p/AF1QipPTVr0r3yHDYc6vJAdTDVXb16Qr12H02bFVa6FM=w1920-h1080-k-no",
          "https://lh5.googleusercontent.com/p/AF1QipMMLnRWckjpn3Hyt__qzG_-kFe87p6L5epiLknq=w1920-h1080-k-no",
          "https://lh5.googleusercontent.com/p/AF1QipNZM-PqOBTj3KwC6MICmrPhOyaZOZDp8JwwRe6k=w1920-h1080-k-no",
          "https://lh5.googleusercontent.com/p/AF1QipNe79Hv_FzoAwoqEpjUQxY_q6UsU4WMgpUWNRme=w1920-h1080-k-no"
        ],
        "placeId": "ChIJYdb214lt5kcRfewr8U8Iiss",
        "coords": {
          "lat": 48.861815899999996,
          "lng": 2.3830093999999997
        },
        "addressParsed": {
          "neighborhood": "119 Rue du Chemin Vert",
          "street": "119 Rue du Chemin Vert",
          "city": "Paris",
          "postalCode": "75011",
          "state": null,
          "countryCode": "FR"
        },
        "website": null,
        "categories": ["Restauration rapide", "Kebab"],
        "distance": 352.68790273025513,
        "timeByFoot": "04:25"
      },
      {
        "url": "https://www.google.fr/maps/place/Karaage-ya+Charonne/@48.8558928,2.384409,17z/data=!3m1!4b1!4m5!3m4!1s0x47e66df5829da951:0xf3a55e97fd1520e2!8m2!3d48.8558893!4d2.3865977",
        "title": "Karaage-ya Charonne",
        "openingHours": [
          {
            "day": "samedi",
            "hours": "19:00 to 22:00"
          },
          {
            "day": "dimanche",
            "hours": "19:00 to 22:00"
          },
          {
            "day": "lundi",
            "hours": "12:00 to 14:30, 19:00 to 22:00"
          },
          {
            "day": "mardi",
            "hours": "12:00 to 14:30, 19:00 to 22:00"
          },
          {
            "day": "mercredi",
            "hours": "12:00 to 14:30, 19:00 to 22:00"
          },
          {
            "day": "jeudi",
            "hours": "12:00 to 14:30, 19:00 to 22:00"
          },
          {
            "day": "vendredi",
            "hours": "12:00 to 14:30, 19:00 to 22:00"
          }
        ],
        "images": [
          "https://lh5.googleusercontent.com/p/AF1QipPlOu0OJHnno4Vjo8-4bUbwT-sUuqojuSBXqggp=w1920-h1080-k-no",
          "https://lh5.googleusercontent.com/p/AF1QipP6o9BmNC5RjUmUzNZFtJuc-N5yCDCk8q3O91PH=w1920-h1080-k-no",
          "https://lh5.googleusercontent.com/p/AF1QipPDyXtM_67vstq9CS2oMWZ5himO5gg-284KXuFA=w1920-h1080-k-no",
          "https://lh5.googleusercontent.com/p/AF1QipP1IYb6-CazPhfVDPH8Jiad7tDxUnNdrEXrP_RS=w1920-h1080-k-no",
          "https://lh5.googleusercontent.com/p/AF1QipO9rXu_KY81uZsaubuGTrKPNO91YjvKaj_spDBw=w1920-h1080-k-no"
        ],
        "placeId": "ChIJUamdgvVt5kcR4iAV_ZdepfM",
        "coords": {
          "lat": 48.8558893,
          "lng": 2.3865977
        },
        "addressParsed": {
          "neighborhood": "46 Rue L√©on Frot",
          "street": "46 Rue L√©on Frot",
          "city": "Paris",
          "postalCode": "75011",
          "state": null,
          "countryCode": "FR"
        },
        "website": "http://karaage-ya-charonne.fr/fr",
        "categories": [
          "Restaurant japonais authentique",
          "Restauration rapide",
          "Restaurant japonais"
        ],
        "distance": 704.1901137340467,
        "timeByFoot": "08:48"
      },
      {
        "url": "https://www.google.fr/maps/place/La+Com%C3%A8te/@48.8587038,2.3594215,14z/data=!4m7!3m6!1s0x47e66dee35623915:0x8a4fefabaedf9713!8m2!3d48.8578773!4d2.3815361!15sCgpsYSBjb23DqHRlWgwiCmxhIGNvbcOodGWSAQZiaXN0cm_gAQA!16s%2Fg%2F1vd70mp6?coh=164777&entry=tt&shorturl=1",
        "title": "La Com√®te",
        "openingHours": [
          {
            "day": "samedi",
            "hours": "09:00 to 01:00"
          },
          {
            "day": "dimanche",
            "hours": "10:00 to 18:00"
          },
          {
            "day": "lundi",
            "hours": "08:00 to 01:00"
          },
          {
            "day": "mardi",
            "hours": "08:00 to 01:00"
          },
          {
            "day": "mercredi",
            "hours": "08:00 to 01:00"
          },
          {
            "day": "jeudi",
            "hours": "08:00 to 01:00"
          },
          {
            "day": "vendredi",
            "hours": "08:00 to 01:00"
          }
        ],
        "images": [
          "https://lh5.googleusercontent.com/p/AF1QipNUAqE9xbSE7H036vqA75pQlAnRgMYSIR-gNEA0=w1920-h1080-k-no",
          "https://lh5.googleusercontent.com/p/AF1QipOlT4Z37Xnf_zz5A5bN_CqoE6qYEKGWzxD9hidc=w1920-h1080-k-no",
          "https://lh5.googleusercontent.com/p/AF1QipM7pAR-vWgOclAqBUWii1e8Ia4bpRMXcdnN5lM2=w1920-h1080-k-no",
          "https://lh5.googleusercontent.com/p/AF1QipMlrgmikmxiI5m_a-GPvCDi_3uL8fKGK2VKge2P=w1920-h1080-k-no",
          "https://lh5.googleusercontent.com/p/AF1QipPs8umuJdI2gTnX4I54Xa5uDtVdnJP6qgAyyDpk=w1920-h1080-k-no"
        ],
        "placeId": "ChIJFTliNe5t5kcRE5ffrqvvT4o",
        "coords": {
          "lat": 48.8578851,
          "lng": 2.3815309
        },
        "addressParsed": {
          "neighborhood": "140 Rue de la Roquette",
          "street": "140 Rue de la Roquette",
          "city": "Paris",
          "postalCode": "75011",
          "state": null,
          "countryCode": "FR"
        },
        "website": "https://lacometeparis.fr/fr",
        "categories": [
          "Bistro",
          "Caf√©",
          "Restaurant fran√ßais",
          "Restaurant",
          "Brasserie"
        ],
        "distance": 284.10576472795276,
        "timeByFoot": "03:33"
      },
      {
        "url": "https://www.google.fr/maps/place/PNY+OBERKAMPF/@48.8656434,2.3755803,17z/data=!3m1!4b1!4m5!3m4!1s0x47e66de54b76a9d9:0x6f57f9422b3c4baa!8m2!3d48.8656399!4d2.377769",
        "title": "PNY OBERKAMPF",
        "openingHours": [
          {
            "day": "samedi",
            "hours": "12:00 to 23:30"
          },
          {
            "day": "dimanche",
            "hours": "12:00 to 23:00"
          },
          {
            "day": "lundi",
            "hours": "12:00 to 15:00, 19:00 to 23:00"
          },
          {
            "day": "mardi",
            "hours": "12:00 to 15:00, 19:00 to 23:00"
          },
          {
            "day": "mercredi",
            "hours": "12:00 to 15:00, 19:00 to 23:00"
          },
          {
            "day": "jeudi",
            "hours": "12:00 to 15:00, 19:00 to 23:30"
          },
          {
            "day": "vendredi",
            "hours": "12:00 to 15:00, 19:00 to 23:30"
          }
        ],
        "images": [
          "https://lh5.googleusercontent.com/p/AF1QipPl6DWaxIjQ3LJ3CQAe71R15i5qaImrmDL49zJ2=w1920-h1080-k-no",
          "https://lh5.googleusercontent.com/p/AF1QipNFatHdbBR5S2IJzI3fmdd3_KBi7xIwvqKmCPMw=w1920-h1080-k-no",
          "https://lh5.googleusercontent.com/p/AF1QipPHKLO-EyTP_GlIJsrlgPyBFo80F4LePWPyzJ7K=w1920-h1080-k-no",
          "https://lh5.googleusercontent.com/p/AF1QipM6c7kaY-CgAnR_DaKKVnKGkwoD9lqfHCAP2bza=w1920-h1080-k-no",
          "https://lh5.googleusercontent.com/p/AF1QipOxHOtt8J7QCJHIRWbmRXQnheDWnlaL2nkg0wQi=w1920-h1080-k-no"
        ],
        "placeId": "ChIJ2al2S-Vt5kcRqks8K0L5V28",
        "coords": {
          "lat": 48.8656399,
          "lng": 2.377769
        },
        "addressParsed": {
          "neighborhood": "96 Rue Oberkampf",
          "street": "96 Rue Oberkampf",
          "city": "Paris",
          "postalCode": "75011",
          "state": null,
          "countryCode": "FR"
        },
        "website": "https://www.pnyburger.com/pny-burger-oberkampf",
        "categories": [
          "Restaurant de hamburgers",
          "Restaurant am√©ricain",
          "Restauration rapide",
          "Restaurant v√©g√©tarien"
        ],
        "distance": 645.4306998599913,
        "timeByFoot": "08:04"
      },
      {
        "url": "https://www.google.fr/maps/place/La+Maison+du+Daya/@48.8616855,2.3802493,17z/data=!3m1!4b1!4m5!3m4!1s0x47e66dc1c37670cb:0x9c9f41e0d6456da5!8m2!3d48.861682!4d2.382438",
        "title": "La Maison du Daya",
        "openingHours": [
          {
            "day": "samedi",
            "hours": "11:00 to 15:00"
          },
          {
            "day": "dimanche",
            "hours": "Ferm√©"
          },
          {
            "day": "lundi",
            "hours": "11:00 to 15:00, 19:00 to 22:00"
          },
          {
            "day": "mardi",
            "hours": "11:00 to 15:00, 19:00 to 22:00"
          },
          {
            "day": "mercredi",
            "hours": "11:00 to 15:00, 19:00 to 22:00"
          },
          {
            "day": "jeudi",
            "hours": "11:00 to 15:00, 19:00 to 22:00"
          },
          {
            "day": "vendredi",
            "hours": "11:00 to 15:00, 19:00 to 22:00"
          }
        ],
        "images": [
          "https://lh5.googleusercontent.com/p/AF1QipOdRAPti09En6J_t6cowgqF2gxwuIMoSW26B2FF=w1920-h1080-k-no",
          "https://lh5.googleusercontent.com/p/AF1QipOjQ8vRp-wrNG09C4OpqJoWbeb-v177lAluLL5N=w1920-h1080-k-no",
          "https://lh5.googleusercontent.com/p/AF1QipOSBI-LAQiOtM6--19Ulc-zVBXou25lTsjDN4ls=w1920-h1080-k-no",
          "https://lh5.googleusercontent.com/p/AF1QipMZ_n-7rGmMCpkpB9QoqSA2avpJF-lfN47IcAim=w1920-h1080-k-no",
          "https://lh5.googleusercontent.com/p/AF1QipOIY4gmy-RCcL3Xjb_pjqUGUIJokxZsLp4mvnEk=w1920-h1080-k-no"
        ],
        "placeId": "ChIJy3B2w8Ft5kcRpW1F1uBBn5w",
        "coords": {
          "lat": 48.861681999999995,
          "lng": 2.382438
        },
        "addressParsed": {
          "neighborhood": "115 Rue du Chemin Vert",
          "street": "115 Rue du Chemin Vert",
          "city": "Paris",
          "postalCode": "75011",
          "state": null,
          "countryCode": "FR"
        },
        "website": "https://lamaisondudaya.com/",
        "categories": [
          "Restaurant",
          "Restaurant de desserts",
          "Restaurant familial",
          "Restauration rapide",
          "Restaurant fran√ßais",
          "Restaurant de plats √† emporter",
          "Restaurant de viande",
          "Restaurant m√©diterran√©en",
          "Restaurant sp√©cialis√© dans les petites portions √† partager",
          "Restaurant v√©g√©tarien"
        ],
        "distance": 310.62359342466715,
        "timeByFoot": "03:53"
      },
      {
        "url": "https://www.google.fr/maps/place/Bombol%C3%B2+Epicerie-Pizzeria-Oenoth%C3%A8que-Traiteur+Italien/@48.8602228,2.3735287,17z/data=!3m1!4b1!4m5!3m4!1s0x47e66d46501b842d:0x4a7c5b3e61796af3!8m2!3d48.8602193!4d2.3757174",
        "title": "Bombol√≤ Epicerie-Pizzeria-Oenoth√®que-Traiteur Italien",
        "openingHours": [
          {
            "day": "samedi",
            "hours": "12:00 to 14:00, 18:30 to 21:30"
          },
          {
            "day": "dimanche",
            "hours": "Ferm√©"
          },
          {
            "day": "lundi",
            "hours": "12:00 to 14:00, 18:30 to 21:00"
          },
          {
            "day": "mardi",
            "hours": "12:00 to 14:00, 18:30 to 21:00"
          },
          {
            "day": "mercredi",
            "hours": "12:00 to 14:00, 18:30 to 21:00"
          },
          {
            "day": "jeudi",
            "hours": "12:00 to 14:00, 18:30 to 21:00"
          },
          {
            "day": "vendredi",
            "hours": "12:00 to 14:00, 18:30 to 21:30"
          }
        ],
        "images": [
          "https://lh5.googleusercontent.com/p/AF1QipOZpHIKHA9hyLwmWBCJYjxUz2aII55LP2sVh1Pt=w1920-h1080-k-no",
          "https://lh5.googleusercontent.com/p/AF1QipN4x99WU0lFlmPAfds5dyz-B-ZWG9QcDwSyG6QQ=w1920-h1080-k-no",
          "https://lh5.googleusercontent.com/p/AF1QipMidb_FvhMGzjDucbrCc2p11_Y8CqvIeukzrOKP=w1920-h1080-k-no",
          "https://lh5.googleusercontent.com/p/AF1QipN3Hbu8zcejuE2f8zSG__skPL9RIqAYYICLlq0D=w1920-h1080-k-no",
          "https://lh5.googleusercontent.com/p/AF1QipNP2BQmihhRbxTxtw_YxJR1lvMkuq9xLCD6DFjZ=w1920-h1080-k-no"
        ],
        "placeId": "ChIJLYQbUEZt5kcR82p5YT5bfEo",
        "coords": {
          "lat": 48.8602193,
          "lng": 2.3757174
        },
        "addressParsed": {
          "neighborhood": "90 Bd Voltaire",
          "street": "90 Bd Voltaire",
          "city": "Paris",
          "postalCode": "75011",
          "state": null,
          "countryCode": "FR"
        },
        "website": "http://www.bombolo.fr/",
        "categories": ["Restaurant italien"],
        "distance": 254.08431713794977,
        "timeByFoot": "03:11"
      },
      {
        "url": "https://www.google.fr/maps/place/Kr%C3%BCgen+G%C3%A9n%C3%A9ral/@48.8611635,2.376071,17z/data=!3m1!4b1!4m5!3m4!1s0x47e66dadb81b330d:0x9e5b64fc693d18aa!8m2!3d48.86116!4d2.3782597",
        "title": "Kr√ºgen G√©n√©ral",
        "openingHours": [
          {
            "day": "samedi",
            "hours": "12:00 to 22:30"
          },
          {
            "day": "dimanche",
            "hours": "12:00 to 21:30"
          },
          {
            "day": "lundi",
            "hours": "12:00 to 14:30"
          },
          {
            "day": "mardi",
            "hours": "12:00 to 14:30, 18:00 to 22:30"
          },
          {
            "day": "mercredi",
            "hours": "12:00 to 14:30, 18:00 to 22:30"
          },
          {
            "day": "jeudi",
            "hours": "12:00 to 14:30, 18:00 to 22:30"
          },
          {
            "day": "vendredi",
            "hours": "12:00 to 14:30, 18:00 to 22:30"
          }
        ],
        "images": [
          "https://lh5.googleusercontent.com/p/AF1QipOTd8j0Cx3lma7SeOgCry8nW795p1law4g6ihc6=w1920-h1080-k-no",
          "https://lh5.googleusercontent.com/p/AF1QipPB9pv__FkXBThZGaI73h-_yCB6RYKf_48-A_K-=w1920-h1080-k-no",
          "https://lh5.googleusercontent.com/p/AF1QipMteY0vCuxt9pkj_HR5gD7lK5nzga5BWm83HZ4o=w1920-h1080-k-no",
          "https://lh5.googleusercontent.com/p/AF1QipOjK1L8TTIz9jII1BktwkHGFw01Yb5swt98ykq9=w1920-h1080-k-no",
          "https://lh5.googleusercontent.com/p/AF1QipM4OhyVPu_9ikJdiYk1aEbSKdULmPECjLVK7bKR=w1920-h1080-k-no"
        ],
        "placeId": "ChIJDTMbuK1t5kcRqhg9afxkW54",
        "coords": {
          "lat": 48.86116,
          "lng": 2.3782597
        },
        "addressParsed": {
          "neighborhood": "4 Rue du G√©n√©ral Renault",
          "street": "4 Rue du G√©n√©ral Renault",
          "city": "Paris",
          "postalCode": "75011",
          "state": null,
          "countryCode": "FR"
        },
        "website": "https://krugenparis.com/",
        "categories": ["Cr√™perie", "Restaurant fran√ßais"],
        "distance": 153.97286438242563,
        "timeByFoot": "01:55"
      },
      {
        "url": "https://www.google.fr/maps/place/Chez+Funda/@48.8569909,2.3774666,17z/data=!3m1!4b1!4m5!3m4!1s0x47e66d61cab8459f:0xb2ede46ae104bea3!8m2!3d48.8569874!4d2.3796553",
        "title": "Chez Funda",
        "openingHours": [
          {
            "day": "samedi",
            "hours": "11:00 to 00:00"
          },
          {
            "day": "dimanche",
            "hours": "11:00 to 00:00"
          },
          {
            "day": "lundi",
            "hours": "11:00 to 23:00"
          },
          {
            "day": "mardi",
            "hours": "11:00 to 23:00"
          },
          {
            "day": "mercredi",
            "hours": "11:00 to 23:00"
          },
          {
            "day": "jeudi",
            "hours": "11:00 to 23:00"
          },
          {
            "day": "vendredi",
            "hours": "11:00 to 00:00"
          }
        ],
        "images": [
          "https://lh5.googleusercontent.com/p/AF1QipNYvIfzQFq87gnrkpFMae3IElT1ZaquTR6rLkM9=w1920-h1080-k-no",
          "https://lh5.googleusercontent.com/p/AF1QipOofrydtpyVkR0XS1olR3mSbNsRa9qHUBcs33eV=w1920-h1080-k-no",
          "https://lh5.googleusercontent.com/p/AF1QipNqI-ILT92xZqYk7Gr_qPA1CfEJzLnsdHKOVyEu=w1920-h1080-k-no",
          "https://lh5.googleusercontent.com/p/AF1QipMG9zNSDFm_Db2MV_VE06uWjaBuuZeXqCCNfMnH=w1920-h1080-k-no",
          "https://lh5.googleusercontent.com/p/AF1QipMVcngsxKgcG-n6UNEd7K7Tu_S7Yz_djmHp1FSG=w1920-h1080-k-no"
        ],
        "placeId": "ChIJn0W4ymFt5kcRo74E4Wrk7bI",
        "coords": {
          "lat": 48.8569874,
          "lng": 2.3796553
        },
        "addressParsed": {
          "neighborhood": "170 Av. Ledru Rollin",
          "street": "170 Av. Ledru Rollin",
          "city": "Paris",
          "postalCode": "75011",
          "state": null,
          "countryCode": "FR"
        },
        "website": "https://chezfunda.fr/fr",
        "categories": ["Restaurant v√©g√©tarien"],
        "distance": 326.7636500436343,
        "timeByFoot": "04:05"
      },
      {
        "url": "https://www.google.fr/maps/place/AUX+BONS+CRUS/@48.8572137,2.377822,17z/data=!3m1!4b1!4m5!3m4!1s0x47e66df7bc7eaaab:0xbb9691c8dbc42dbe!8m2!3d48.8572154!4d2.3800287",
        "title": "AUX BONS CRUS",
        "openingHours": [
          {
            "day": "samedi",
            "hours": "12:30 to 15:00, 19:30 to 22:30"
          },
          {
            "day": "dimanche",
            "hours": "12:30 to 15:00, 19:30 to 22:30"
          },
          {
            "day": "lundi",
            "hours": "12:00 to 14:30, 19:30 to 22:30"
          },
          {
            "day": "mardi",
            "hours": "12:00 to 14:30, 19:30 to 22:30"
          },
          {
            "day": "mercredi",
            "hours": "12:00 to 14:30, 19:30 to 22:30"
          },
          {
            "day": "jeudi",
            "hours": "12:00 to 14:30, 19:30 to 22:30"
          },
          {
            "day": "vendredi",
            "hours": "12:00 to 14:30, 19:00 to 22:30"
          }
        ],
        "images": [
          "https://lh5.googleusercontent.com/p/AF1QipOYUHSgK6PIyUcX-Cdkfps-4_8lbaDsVQLqQkov=w1920-h1080-k-no",
          "https://lh5.googleusercontent.com/p/AF1QipNZyD_8Bv219k9UVcnTU8JMeNrFSj5S5WC0jPAJ=w1920-h1080-k-no",
          "https://lh5.googleusercontent.com/p/AF1QipMfIjIVO44uTdB6XLp-OehC7L16vZstXTOWo11g=w1920-h1080-k-no",
          "https://lh5.googleusercontent.com/p/AF1QipPZcOALKO75bIggO789fPHeOokP4H1SoxLjsjK0=w1920-h1080-k-no",
          "https://lh5.googleusercontent.com/p/AF1QipNNCg0Dvp9Wcn6YbHS5_6noAauy6wV8KrzPgFc=w1920-h1080-k-no"
        ],
        "placeId": "ChIJq6p-vPdt5kcRvi3E28iRlrs",
        "coords": {
          "lat": 48.8572102,
          "lng": 2.3800106999999997
        },
        "addressParsed": {
          "neighborhood": "54 Rue Godefroy Cavaignac",
          "street": "54 Rue Godefroy Cavaignac",
          "city": "Paris",
          "postalCode": "75011",
          "state": null,
          "countryCode": "FR"
        },
        "website": "http://www.auxbonscrus.fr/",
        "categories": ["Restaurant", "Restaurant fran√ßais"],
        "distance": 306.374383806914,
        "timeByFoot": "03:50"
      },
      {
        "url": "https://www.google.fr/maps/place/Tambo/@48.8551345,2.3789277,17z/data=!3m1!4b1!4m5!3m4!1s0x47e6720ac08a6939:0x2423b6fb202227c4!8m2!3d48.855131!4d2.3811164",
        "title": "Tambo",
        "openingHours": [
          {
            "day": "samedi",
            "hours": "11:30 to 14:30, 19:00 to 22:30"
          },
          {
            "day": "dimanche",
            "hours": "11:30 to 17:00"
          },
          {
            "day": "lundi",
            "hours": "Ferm√©"
          },
          {
            "day": "mardi",
            "hours": "11:30 to 14:30, 19:00 to 22:30"
          },
          {
            "day": "mercredi",
            "hours": "11:30 to 14:30, 19:00 to 22:30"
          },
          {
            "day": "jeudi",
            "hours": "11:30 to 14:30, 19:00 to 22:30"
          },
          {
            "day": "vendredi",
            "hours": "11:30 to 14:30, 19:00 to 22:30"
          }
        ],
        "images": [
          "https://lh5.googleusercontent.com/p/AF1QipMGZT1rH3cvtfr73RT10kokfFDUd8Qe77gCXn1N=w1920-h1080-k-no",
          "https://lh5.googleusercontent.com/p/AF1QipPTjPdsiYGeOoPqiPlxWuNfGQavH8iwjpZxK0z3=w1920-h1080-k-no",
          "https://lh5.googleusercontent.com/p/AF1QipNn-vuaGsEo_xUWOkxuWEpsMiig6YMQxNVRbPq4=w1920-h1080-k-no",
          "https://lh5.googleusercontent.com/p/AF1QipNjdzmzKXulUSzzzPgm1cQJM9nxX14Sk-VnvR97=w1920-h1080-k-no",
          "https://lh5.googleusercontent.com/p/AF1QipMzLyO0sUqaDb9g-hAmDv1TqSzEaPWVrQtZ0zWH=w1920-h1080-k-no"
        ],
        "placeId": "ChIJOWmKwApy5kcRxCciIPu2IyQ",
        "coords": {
          "lat": 48.855131,
          "lng": 2.3811164
        },
        "addressParsed": {
          "neighborhood": "21 Rue Godefroy Cavaignac",
          "street": "21 Rue Godefroy Cavaignac",
          "city": "Paris",
          "postalCode": "75011",
          "state": null,
          "countryCode": "FR"
        },
        "website": "http://untambo.fr/",
        "categories": ["Restaurant latino-am√©ricain"],
        "distance": 550.1363234669387,
        "timeByFoot": "06:53"
      },
      {
        "url": "https://www.google.fr/maps/place/Shinjuku+Sushi/@48.8551518,2.3723617,15z/data=!4m5!3m4!1s0x47e66dfa130379d1:0x38579678db6bb49e!8m2!3d48.8617186!4d2.3777568",
        "title": "Shinjuku Sushi",
        "openingHours": [
          {
            "day": "samedi",
            "hours": "11:15 to 15:00, 18:00 to 22:45"
          },
          {
            "day": "dimanche",
            "hours": "18:00 to 22:45"
          },
          {
            "day": "lundi",
            "hours": "11:15 to 15:00, 18:00 to 22:45"
          },
          {
            "day": "mardi",
            "hours": "11:15 to 15:00, 18:00 to 22:45"
          },
          {
            "day": "mercredi",
            "hours": "11:15 to 15:00, 18:00 to 22:45"
          },
          {
            "day": "jeudi",
            "hours": "11:15 to 15:00, 18:00 to 22:45"
          },
          {
            "day": "vendredi",
            "hours": "11:15 to 15:00, 18:00 to 22:45"
          }
        ],
        "images": [
          "https://lh5.googleusercontent.com/p/AF1QipPaDYBK7fC8cpIhSwraylPBL03UD5pQyFEg0SRt=w1920-h1080-k-no",
          "https://lh5.googleusercontent.com/p/AF1QipMIgCjQEkq97gmVnH39RLgTLsJwqP2omDIXHrHL=w1920-h1080-k-no",
          "https://lh5.googleusercontent.com/p/AF1QipMqfr0-HnmLC_jRljYKhdiTr5m8Sw4MPrFDoS1U=w1920-h1080-k-no",
          "https://lh5.googleusercontent.com/p/AF1QipOCol6CUtkN76GQ-4nt7iUG-etcVS8WNjujQZi3=w1920-h1080-k-no",
          "https://lh5.googleusercontent.com/p/AF1QipP5SZI5yS-ATtXpGiyK6GL68B_jLl9VScHvBTe7=w1920-h1080-k-no"
        ],
        "placeId": "ChIJ0XkDE_pt5kcRnrRr23iWVzg",
        "coords": {
          "lat": 48.861717899999995,
          "lng": 2.3777577
        },
        "addressParsed": {
          "neighborhood": "16 Rue Lacharri√®re",
          "street": "16 Rue Lacharri√®re",
          "city": "Paris",
          "postalCode": "75011",
          "state": null,
          "countryCode": "FR"
        },
        "website": "http://www.shinjuku-sushi11.fr/",
        "categories": ["Restaurant japonais", "Restaurant de sushis"],
        "distance": 225.84877778293358,
        "timeByFoot": "02:49"
      },
      {
        "url": "https://www.google.fr/maps/place/Le+Grain+de+Riz/@48.8570537,2.3776714,17z/data=!3m1!4b1!4m5!3m4!1s0x47e66df7bdda2f49:0x9254558c6395a22e!8m2!3d48.8570989!4d2.3796791",
        "title": "Le Grain de Riz",
        "openingHours": [
          {
            "day": "samedi",
            "hours": "11:00 to 15:00, 18:00 to 22:00"
          },
          {
            "day": "dimanche",
            "hours": "Ferm√©"
          },
          {
            "day": "lundi",
            "hours": "11:00 to 15:00, 18:00 to 22:00"
          },
          {
            "day": "mardi",
            "hours": "11:00 to 15:00, 18:00 to 22:00"
          },
          {
            "day": "mercredi",
            "hours": "11:00 to 15:00, 18:00 to 22:00"
          },
          {
            "day": "jeudi",
            "hours": "11:00 to 15:00, 18:00 to 22:00"
          },
          {
            "day": "vendredi",
            "hours": "11:00 to 15:00, 18:00 to 22:00"
          }
        ],
        "images": [
          "https://lh5.googleusercontent.com/p/AF1QipNMQ4703SwxunxAulVtPDeiUz4sYpiDjoFEqtb3=w1920-h1080-k-no",
          "https://lh5.googleusercontent.com/p/AF1QipOewMq_BmrAPr1S96gs4OxZTInQ87aIgll88rNY=w1920-h1080-k-no",
          "https://lh5.googleusercontent.com/p/AF1QipOJDKJHZPgGchcARAdL-dkEOar9K2DzAgrGCj1T=w1920-h1080-k-no",
          "https://lh5.googleusercontent.com/p/AF1QipPLckQEZdctNIxaygAbDw16dGi2nANfdZOQhWzJ=w1920-h1080-k-no",
          "https://lh5.googleusercontent.com/p/AF1QipMTUhr9VyXjcbZduq7yNIN60Mhl0c-FSZMFf8wI=w1920-h1080-k-no"
        ],
        "placeId": "ChIJSS_avfdt5kcRLqKVY4xVVJI",
        "coords": {
          "lat": 48.857050199999996,
          "lng": 2.3798600999999997
        },
        "addressParsed": {
          "neighborhood": "49 Rue Godefroy Cavaignac",
          "street": "49 Rue Godefroy Cavaignac",
          "city": "Paris",
          "postalCode": "75011",
          "state": null,
          "countryCode": "FR"
        },
        "website": null,
        "categories": ["Restaurant vietnamien"],
        "distance": 321.87296111958904,
        "timeByFoot": "04:01"
      },
      {
        "url": "https://www.google.fr/maps/place/Mori+caf%C3%A9/@48.8534565,2.3735623,17z/data=!3m1!4b1!4m5!3m4!1s0x47e673af8e9f5eb1:0x22dd1cd4d422053c!8m2!3d48.8534522!4d2.3757778",
        "title": "Mori caf√©",
        "openingHours": [
          {
            "day": "samedi",
            "hours": "12:00 to 20:45"
          },
          {
            "day": "dimanche",
            "hours": "12:00 to 15:00"
          },
          {
            "day": "lundi",
            "hours": "Ferm√©"
          },
          {
            "day": "mardi",
            "hours": "Ferm√©"
          },
          {
            "day": "mercredi",
            "hours": "12:00 to 15:00"
          },
          {
            "day": "jeudi",
            "hours": "12:00 to 15:00"
          },
          {
            "day": "vendredi",
            "hours": "12:00 to 20:45"
          }
        ],
        "images": [
          "https://lh5.googleusercontent.com/p/AF1QipP3NhC4QO_P2emPWpjSR7ZeoTXGTe3lsdzPPtT0=w1920-h1080-k-no",
          "https://lh5.googleusercontent.com/p/AF1QipO4fJD-V9TCX-F6TwTnX2bg02Zg6k9NXR8gzL8y=w1920-h1080-k-no",
          "https://lh5.googleusercontent.com/p/AF1QipOnCnbH4PZaEqn7zl60IkwTuMdXs2rSxYecRqrd=w1920-h1080-k-no",
          "https://lh5.googleusercontent.com/p/AF1QipNWZQP_llru5apdL9Z1_eMkH8V-J3hJBR8GcKrW=w1920-h1080-k-no",
          "https://lh5.googleusercontent.com/p/AF1QipNRKD-sY8w_YK6LADiwN0J9rsI9QQFA2WcACKH5=w1920-h1080-k-no"
        ],
        "placeId": "ChIJsV6fjq9z5kcRPAUi1NQc3SI",
        "coords": {
          "lat": 48.853452999999995,
          "lng": 2.3757509999999997
        },
        "addressParsed": {
          "neighborhood": "2 Rue des Taillandiers",
          "street": "2 Rue des Taillandiers",
          "city": "Paris",
          "postalCode": "75011",
          "state": null,
          "countryCode": "FR"
        },
        "website": "http://moricafeparis.com/",
        "categories": ["Restaurant v√©g√©talien", "Restaurant japonais"],
        "distance": 759.7948930793159,
        "timeByFoot": "09:30"
      }
    ]
  },
  {
    "name": "Bars üçª",
    "places": [
      {
        "url": "https://www.google.fr/maps/place/La+Fine+Mousse+Bar/@48.8648674,2.379608,17z/data=!3m1!4b1!4m5!3m4!1s0x47e66dc03deb9441:0xf66db0d43ee02ec!8m2!3d48.8648729!4d2.3818231",
        "title": "La Fine Mousse Bar",
        "openingHours": [
          {
            "day": "samedi",
            "hours": "17:00 to 02:00"
          },
          {
            "day": "dimanche",
            "hours": "17:00 to 00:00"
          },
          {
            "day": "lundi",
            "hours": "17:00 to 00:00"
          },
          {
            "day": "mardi",
            "hours": "17:00 to 00:00"
          },
          {
            "day": "mercredi",
            "hours": "17:00 to 00:00"
          },
          {
            "day": "jeudi",
            "hours": "17:00 to 01:00"
          },
          {
            "day": "vendredi",
            "hours": "17:00 to 02:00"
          }
        ],
        "images": [
          "https://lh5.googleusercontent.com/p/AF1QipPUrtlJ8ycM_4HRY3QfGsyJGMS20PWGcx3FR0BV=w1920-h1080-k-no",
          "https://lh5.googleusercontent.com/p/AF1QipM4wC1M4_78ERXyTtSlyQi23zPI2SY3bMqZlYWr=w1920-h1080-k-no",
          "https://lh5.googleusercontent.com/p/AF1QipOD8rpl9fdhMuOKtfdhGTMMWfi_vEg8tuPXhQMT=w1920-h1080-k-no",
          "https://lh5.googleusercontent.com/p/AF1QipOWtWs1oyFQjDowc5rJuGlcmxPpdP5p1Mhg6-dY=w1920-h1080-k-no",
          "https://lh5.googleusercontent.com/p/AF1QipM52w6wJiiKQ2cq7PHVK4RGKc470edYuXeFETUE=w1920-h1080-k-no"
        ],
        "placeId": "ChIJQZTrPcBt5kcR7ALuQw3bZg8",
        "coords": {
          "lat": 48.864863899999996,
          "lng": 2.3817966999999998
        },
        "addressParsed": {
          "neighborhood": "6 Av. Jean Aicard",
          "street": "6 Av. Jean Aicard",
          "city": "Paris",
          "postalCode": "75011",
          "state": null,
          "countryCode": "FR"
        },
        "website": "https://www.facebook.com/lafinemousse/",
        "categories": ["Bar", "Pub"],
        "distance": 583.9151728768176,
        "timeByFoot": "07:18"
      },
      {
        "url": "https://www.google.fr/maps/place/La+Petite+Pe%C3%B1a/@48.8608854,2.3793596,17z/data=!3m1!4b1!4m5!3m4!1s0x47e66df070a938cb:0x6cce47c9d909bb7c!8m2!3d48.8608819!4d2.3815483",
        "title": "La Petite Pe√±a",
        "openingHours": [
          {
            "day": "samedi",
            "hours": "17:00 to 02:00"
          },
          {
            "day": "dimanche",
            "hours": "Ferm√©"
          },
          {
            "day": "lundi",
            "hours": "Ferm√©"
          },
          {
            "day": "mardi",
            "hours": "19:00 to 02:00"
          },
          {
            "day": "mercredi",
            "hours": "18:00 to 02:00"
          },
          {
            "day": "jeudi",
            "hours": "18:00 to 02:00"
          },
          {
            "day": "vendredi",
            "hours": "17:00 to 02:00"
          }
        ],
        "images": [
          "https://lh5.googleusercontent.com/p/AF1QipN0JSQxR1YZWxznDEbWe6hEcIkxoqk7tiF-9H5o=w1920-h1080-k-no",
          "https://lh5.googleusercontent.com/p/AF1QipO18WC4ioNKXn0rvfMY7ccSFvX2YZ-rYgpP77G9=w1920-h1080-k-no",
          "https://lh5.googleusercontent.com/p/AF1QipPF68AFvhNN8w6sSfLNsIznhyIdVD3znQrtKdxI=w1920-h1080-k-no",
          "https://lh5.googleusercontent.com/p/AF1QipOkXqNBfmvEi-m_kvPPvTQZJ2xgEj5TtLFFw0IQ=w1920-h1080-k-no",
          "https://lh5.googleusercontent.com/p/AF1QipOyHWxAPsjwrxZ2mVADr-LLymuxI0mzN2n9f-42=w1920-h1080-k-no"
        ],
        "placeId": "ChIJyzipcPBt5kcRfLsJ2clHzmw",
        "coords": {
          "lat": 48.860881899999995,
          "lng": 2.3815483
        },
        "addressParsed": {
          "neighborhood": "30 Rue Saint-Maur",
          "street": "30 Rue Saint-Maur",
          "city": "Paris",
          "postalCode": "75011",
          "state": null,
          "countryCode": "FR"
        },
        "website": "https://la-petite-pena.business.site/",
        "categories": ["Restaurant espagnol", "Bar", "Restaurant"],
        "distance": 205.67844085113603,
        "timeByFoot": "02:34"
      },
      {
        "url": "https://www.google.fr/maps/place/Le+Consulat+Voltaire/@48.8595372,2.3772556,17z/data=!3m1!4b1!4m5!3m4!1s0x47e66deef65328ff:0xf9e1633c8f72eb1e!8m2!3d48.8595396!4d2.3794631",
        "title": "Le Consulat Voltaire",
        "openingHours": [
          {
            "day": "samedi",
            "hours": "18:00 to 02:00"
          },
          {
            "day": "dimanche",
            "hours": "Ferm√©"
          },
          {
            "day": "lundi",
            "hours": "Ferm√©"
          },
          {
            "day": "mardi",
            "hours": "Ferm√©"
          },
          {
            "day": "mercredi",
            "hours": "18:00 to 02:00"
          },
          {
            "day": "jeudi",
            "hours": "18:00 to 02:00"
          },
          {
            "day": "vendredi",
            "hours": "18:00 to 02:00"
          }
        ],
        "images": [
          "https://lh5.googleusercontent.com/p/AF1QipPxeHhuGgs8_9O9_RsBvYGzKcr9sblolkDQWXOT=w1920-h1080-k-no",
          "https://lh5.googleusercontent.com/p/AF1QipMTDOISnVo25nl2PqN6rBaxWwfAfmlld2W_e8X4=w1920-h1080-k-no",
          "https://lh5.googleusercontent.com/p/AF1QipP4Yha2zbTLp1OQXU_y5QrFNPGGTVwfgXWNj5j8=w1920-h1080-k-no",
          "https://lh5.googleusercontent.com/p/AF1QipMKNN4Fiirj1CEk5yZosmPMHRC7hhWDrDOTTU05=w1920-h1080-k-no",
          "https://lh5.googleusercontent.com/p/AF1QipPl-4Utr42EYa-Uj_e41WsxhhQfCnqqlJBeSzfl=w1920-h1080-k-no"
        ],
        "placeId": "ChIJ_yhT9u5t5kcRHutyjzxj4fk",
        "coords": {
          "lat": 48.8595337,
          "lng": 2.3794443
        },
        "addressParsed": {
          "neighborhood": "14 Ave Parmentier",
          "street": "14 Ave Parmentier",
          "city": "Paris",
          "postalCode": "75011",
          "state": null,
          "countryCode": "FR"
        },
        "website": "http://www.leconsulat.org/",
        "categories": ["Centre d'art"],
        "distance": 46.56665815804961,
        "timeByFoot": "00:35"
      },
      {
        "url": "https://www.google.fr/maps/place/BODOMA+-+Craft+bar+%2F+Caf%C3%A9/@48.8604875,2.3739286,17z/data=!3m2!4b1!5s0x47e66df9812f045b:0xa2069713ddce0334!4m5!3m4!1s0x47e66df97a2b924b:0xb62b870046c0f687!8m2!3d48.860484!4d2.3761173",
        "title": "BODOMA - Craft bar / Caf√©",
        "openingHours": [
          {
            "day": "samedi",
            "hours": "14:00 to 02:00"
          },
          {
            "day": "dimanche",
            "hours": "16:00 to 22:00"
          },
          {
            "day": "lundi",
            "hours": "Ferm√©"
          },
          {
            "day": "mardi",
            "hours": "16:00 to 23:00"
          },
          {
            "day": "mercredi",
            "hours": "16:00 to 02:00"
          },
          {
            "day": "jeudi",
            "hours": "16:00 to 02:00"
          },
          {
            "day": "vendredi",
            "hours": "16:00 to 02:00"
          }
        ],
        "images": [
          "https://lh5.googleusercontent.com/p/AF1QipMCt0r_-8UB9N1Z_1baXokpZp4vkcK-ojRGLYOa=w1920-h1080-k-no",
          "https://lh5.googleusercontent.com/p/AF1QipMz4OF3mgQlQCw-ofzA1weFrao2KN5qaMy72U-z=w1920-h1080-k-no",
          "https://lh5.googleusercontent.com/p/AF1QipOUyNJDr67j59EVLz6NJ2EB8O6Mq7bonhGEUwgG=w1920-h1080-k-no",
          "https://lh5.googleusercontent.com/p/AF1QipPaRr1K3bgXlCEjK08DkGI2if-5ZMY7Zvm1rYkv=w1920-h1080-k-no",
          "https://lh5.googleusercontent.com/p/AF1QipPNlF550mUM8d6Gp5MSW7bcvrJKHN10_FKgzB5E=w1920-h1080-k-no"
        ],
        "placeId": "ChIJS5Irevlt5kcRh_bARgCHK7Y",
        "coords": {
          "lat": 48.860484,
          "lng": 2.3761172999999998
        },
        "addressParsed": {
          "neighborhood": "79 Bd Voltaire",
          "street": "79 Bd Voltaire",
          "city": "Paris",
          "postalCode": "75011",
          "state": null,
          "countryCode": "FR"
        },
        "website": "https://www.bodoma.com/",
        "categories": [
          "Bar √† bi√®res",
          "Bar",
          "Marchand de bi√®re",
          "Caf√©",
          "Caf√© √† emporter",
          "√âpicerie fine",
          "Caf√© sp√©cialis√© dans les boissons expresso",
          "√âpicerie",
          "Boutique de boissons sans alcool",
          "Bar √† tapas"
        ],
        "distance": 231.49977736138294,
        "timeByFoot": "02:54"
      },
      {
        "url": "https://www.google.fr/maps/place/Maison+BAPBAP/@48.8604875,2.3739286,17z/data=!4m5!3m4!1s0x47e66dfa8486d29f:0x9732ec476ad11b0f!8m2!3d48.8636437!4d2.3786312",
        "title": "Maison BAPBAP",
        "openingHours": [
          {
            "day": "samedi",
            "hours": "12:00 to 20:00"
          },
          {
            "day": "dimanche",
            "hours": "Ferm√©"
          },
          {
            "day": "lundi",
            "hours": "Ferm√©"
          },
          {
            "day": "mardi",
            "hours": "12:00 to 20:00"
          },
          {
            "day": "mercredi",
            "hours": "12:00 to 20:00"
          },
          {
            "day": "jeudi",
            "hours": "12:00 to 20:00"
          },
          {
            "day": "vendredi",
            "hours": "12:00 to 20:00"
          }
        ],
        "images": [
          "https://lh5.googleusercontent.com/p/AF1QipOKZjKsvyXgVUfgdn5CH_fW-B0MuoG-CyvyZagc=w1920-h1080-k-no",
          "https://lh5.googleusercontent.com/p/AF1QipMXyTidkVwq2rPCnUf4apLoO7kG3iFP6cg1hc6q=w1920-h1080-k-no",
          "https://lh5.googleusercontent.com/p/AF1QipMYMIZcDICW0MRIyy3qvuxscH1YlR5AKO2bzT5q=w1920-h1080-k-no",
          "https://lh5.googleusercontent.com/p/AF1QipNUf_gunE_xOgJgDwXsP_qo_aBHqV2lrs6vZI_m=w1920-h1080-k-no",
          "https://lh5.googleusercontent.com/p/AF1QipO49PvCmd-y09C0hBbBdxfZg-H7lKNTddy8kXPd=w1920-h1080-k-no"
        ],
        "placeId": "ChIJn9KGhPpt5kcRDxvRakfsMpc",
        "coords": {
          "lat": 48.8636437,
          "lng": 2.3786312
        },
        "addressParsed": {
          "neighborhood": "79 Rue Saint-Maur",
          "street": "79 Rue Saint-Maur",
          "city": "Paris",
          "postalCode": "75011",
          "state": null,
          "countryCode": "FR"
        },
        "website": "http://www.bapbap.paris/",
        "categories": ["Microbrasserie", "Brasserie"],
        "distance": 417.19813129948386,
        "timeByFoot": "05:13"
      }
    ]
  },
  {
    "name": "Piscines üèä",
    "places": [
      {
        "url": "https://www.google.fr/maps/place/Piscine+Yvonne+Godard/@48.8613697,2.4081697,17z/data=!3m1!4b1!4m5!3m4!1s0x47e66db95905d86b:0x9121da759939b4a3!8m2!3d48.8613662!4d2.4103584",
        "title": "Piscine Yvonne Godard",
        "openingHours": [
          {
            "day": "samedi",
            "hours": "08:30 to 19:30"
          },
          {
            "day": "dimanche",
            "hours": "08:30 to 19:30"
          },
          {
            "day": "lundi",
            "hours": "07:00 to 08:30, 11:30 to 13:30, 16:30 to 22:30"
          },
          {
            "day": "mardi",
            "hours": "07:00 to 08:30, 11:30 to 13:30, 16:30 to 22:30"
          },
          {
            "day": "mercredi",
            "hours": "11:30 to 22:30"
          },
          {
            "day": "jeudi",
            "hours": "07:00 to 08:30, 11:30 to 13:30, 16:30 to 22:30"
          },
          {
            "day": "vendredi",
            "hours": "07:00 to 08:30, 11:30 to 13:30"
          }
        ],
        "images": [
          "https://lh5.googleusercontent.com/p/AF1QipNE92utT2FlHv-ZluvpTS0qHxV0w9qnz8V3QSuA=w1920-h1080-k-no",
          "https://lh5.googleusercontent.com/p/AF1QipN2CpkvJEFQ7MtkiIZbEr9C_ZIjmW9m_6Cww2nS=w1920-h1080-k-no",
          "https://lh5.googleusercontent.com/p/AF1QipPUoKc44XnWT91ao2wyW4IxwLDnqAmFtr1t3iG6=w1920-h1080-k-no",
          "https://lh5.googleusercontent.com/p/AF1QipO8JlouImf_Myt_Rkj0iSkR_2ltn6hyyILjPBlh=w1920-h1080-k-no",
          "https://lh5.googleusercontent.com/p/AF1QipMGRYKadrXSbcd-sTBBA9C9nqkS1XqF7igTpFhr=w1920-h1080-k-no"
        ],
        "placeId": "ChIJa9gFWblt5kcRo7Q5mXXaIZE",
        "coords": {
          "lat": 48.8613662,
          "lng": 2.4103584
        },
        "addressParsed": {
          "neighborhood": "5/7 Rue Serpollet",
          "street": "5/7 Rue Serpollet",
          "city": "Paris",
          "postalCode": "75020",
          "state": null,
          "countryCode": "FR"
        },
        "website": "http://www.piscine-godard.fr/fr",
        "categories": [
          "Piscine",
          "Centre aquatique",
          "Piscine couverte",
          "Piscine municipale",
          "Club de natation",
          "Bassin de natation",
          "√âcole de natation"
        ],
        "distance": 2288.183790784567,
        "timeByFoot": "28:36"
      },
      {
        "url": "https://www.google.fr/maps/place/ESPACE+AQUATIQUE+Pailleron+-+Horaires+patinoire+et+fitness+:+voir+site+internet/@48.8809048,2.3758197,17z/data=!3m1!4b1!4m5!3m4!1s0x47e66ddb80046117:0x349fa4f54ab4eeda!8m2!3d48.8808951!4d2.378014",
        "title": "ESPACE AQUATIQUE Pailleron - Horaires patinoire et fitness : voir site internet",
        "openingHours": [
          {
            "day": "samedi",
            "hours": "08:00 to 20:00"
          },
          {
            "day": "dimanche",
            "hours": "08:00 to 20:00"
          },
          {
            "day": "lundi",
            "hours": "07:00 to 22:30"
          },
          {
            "day": "mardi",
            "hours": "07:00 to 08:30, 11:30 to 22:30"
          },
          {
            "day": "mercredi",
            "hours": "07:00 to 22:30"
          },
          {
            "day": "jeudi",
            "hours": "07:00 to 08:30, 11:30 to 23:30"
          },
          {
            "day": "vendredi",
            "hours": "07:00 to 08:30, 11:30 to 22:30"
          }
        ],
        "images": [
          "https://lh5.googleusercontent.com/p/AF1QipPUw8ZCYBJyMlY5_wjc25-G69g362K0TBPpiFj6=w1920-h1080-k-no",
          "https://lh5.googleusercontent.com/p/AF1QipMiWVl-aZMI05saup_zD2otu-l2A-2zNyMxwml-=w1920-h1080-k-no",
          "https://lh5.googleusercontent.com/p/AF1QipOoxYJfcOfz_DA7ZFbkeiRnsrO38iI0xJM27mxj=w1920-h1080-k-no",
          "https://lh5.googleusercontent.com/p/AF1QipNGR_OgqNdC-A3HvCaVF29uTBe51uGQQO5X6Aby=w1920-h1080-k-no",
          "https://lh5.googleusercontent.com/p/AF1QipN8IyLujoXlrvMBFukZXutFkyHe2W6CGhaPklI3=w1920-h1080-k-no"
        ],
        "placeId": "ChIJF2EEgNtt5kcR2u60SvWknzQ",
        "coords": {
          "lat": 48.8809013,
          "lng": 2.3780083999999997
        },
        "addressParsed": {
          "neighborhood": "32 Rue Edouard Pailleron",
          "street": "32 Rue Edouard Pailleron",
          "city": "Paris",
          "postalCode": "75019",
          "state": null,
          "countryCode": "FR"
        },
        "website": "https://www.pailleron19.com/",
        "categories": [
          "Complexe sportif",
          "Animateur de soir√©es et d'√©v√©nements",
          "Organisateur d'√©v√©nements",
          "Salle de r√©ception",
          "Centre de fitness",
          "Patinoire",
          "Piscine municipale",
          "Sauna",
          "Piscine"
        ],
        "distance": 2335.885001860655,
        "timeByFoot": "29:12"
      },
      {
        "url": "https://www.google.fr/maps/place/Piscine+Jos%C3%A9phine+Baker/@48.8360863,2.3715743,17z/data=!3m1!4b1!4m5!3m4!1s0x47e6723d17a9c251:0xff0ed3fd6a408a7!8m2!3d48.8360829!4d2.376059",
        "title": "Piscine Jos√©phine Baker",
        "openingHours": [
          {
            "day": "samedi",
            "hours": "11:00 to 19:00"
          },
          {
            "day": "dimanche",
            "hours": "11:00 to 19:00"
          },
          {
            "day": "lundi",
            "hours": "07:00 to 08:15, 11:45 to 13:15, 17:00 to 22:00"
          },
          {
            "day": "mardi",
            "hours": "07:00 to 08:15, 17:00 to 20:00"
          },
          {
            "day": "mercredi",
            "hours": "07:00 to 08:15, 13:00 to 20:00"
          },
          {
            "day": "jeudi",
            "hours": "07:00 to 08:15, 11:45 to 13:15, 20:00 to 22:00"
          },
          {
            "day": "vendredi",
            "hours": "07:00 to 08:15, 15:00 to 22:00"
          }
        ],
        "images": [
          "https://lh5.googleusercontent.com/p/AF1QipMfaoNjGy2xYQhCeecdG8H7RAuX2vZTep-gnQOo=w1920-h1080-k-no",
          "https://lh5.googleusercontent.com/p/AF1QipOtzpFgFx4D-1vgqv-kSCsolux4lHarn3BMWzg=w1920-h1080-k-no",
          "https://lh5.googleusercontent.com/p/AF1QipN_Rh9IrL-5XF_TnfrbH48uzQOLQlDlzwX2TDn9=w1920-h1080-k-no",
          "https://lh5.googleusercontent.com/p/AF1QipNoMPRgnFu-aESD5arGaE_drviwLlzoaARQIaIJ=w1920-h1080-k-no",
          "https://lh5.googleusercontent.com/p/AF1QipNGvPU-6G8tm0xcl4VHytYhj6zS8SXhmjms45b1=w1920-h1080-k-no"
        ],
        "placeId": "ChIJUcKpFz1y5kcRpwik1j_t8A8",
        "coords": {
          "lat": 48.8360829,
          "lng": 2.3760589999999997
        },
        "addressParsed": {
          "neighborhood": "Quai Fran√ßois Mauriac",
          "street": "Quai Fran√ßois Mauriac",
          "city": "Paris",
          "postalCode": "75013",
          "state": null,
          "countryCode": "FR"
        },
        "website": "http://www.piscine-baker.fr/",
        "categories": [
          "Piscine municipale",
          "Centre aquatique",
          "Piscine couverte",
          "Club de natation",
          "Bassin de natation",
          "Piscine",
          "√âcole de natation",
          "Parc aquatique"
        ],
        "distance": 2658.8965681719724,
        "timeByFoot": "33:14"
      },
      {
        "url": "https://www.google.fr/maps/place/Piscine+Georges+Hermant/@48.8824427,2.3873053,17z/data=!3m1!4b1!4m5!3m4!1s0x47e66dc7a7082663:0xd571add0bca86363!8m2!3d48.8824392!4d2.389494",
        "title": "Piscine Georges Hermant",
        "openingHours": [
          {
            "day": "samedi",
            "hours": "08:30 to 12:30"
          },
          {
            "day": "dimanche",
            "hours": "08:30 to 12:30"
          },
          {
            "day": "lundi",
            "hours": "07:00 to 08:30, 12:00 to 14:00, 17:00 to 20:00"
          },
          {
            "day": "mardi",
            "hours": "07:00 to 08:30, 12:00 to 14:00, 17:00 to 21:00"
          },
          {
            "day": "mercredi",
            "hours": "08:30 to 21:00"
          },
          {
            "day": "jeudi",
            "hours": "07:00 to 08:30, 12:00 to 14:00, 17:00 to 20:00"
          },
          {
            "day": "vendredi",
            "hours": "07:00 to 08:30, 12:00 to 14:00, 20:00 to 00:00"
          }
        ],
        "images": [
          "https://lh5.googleusercontent.com/p/AF1QipMv-oB1Yy7nUYIBmtFQnueXGFP5Lt3ndRZM0S0f=w1920-h1080-k-no",
          "https://lh5.googleusercontent.com/p/AF1QipORPFs2mNQjgGAGp0HG3DRDeVDvrQTywDh5iaVU=w1920-h1080-k-no",
          "https://lh5.googleusercontent.com/p/AF1QipP7AvjKDSYBoonMEd0BNu1u_ahUdV1fIay2pp1X=w1920-h1080-k-no",
          "https://lh5.googleusercontent.com/p/AF1QipMwfqBwv4Lod8Y32aZMuvf8RlEk5MnyOAVnH2cN=w1920-h1080-k-no",
          "https://lh5.googleusercontent.com/p/AF1QipMDQJzlgEAfMw1q8g2B8rM3_Cd-1xy6aeooEx_q=w1920-h1080-k-no"
        ],
        "placeId": "ChIJYyYIp8dt5kcRY2OovNCtcdU",
        "coords": {
          "lat": 48.8824392,
          "lng": 2.389494
        },
        "addressParsed": {
          "neighborhood": "8-10 Rue David d'Angers",
          "street": "8-10 Rue David d'Angers",
          "city": "Paris",
          "postalCode": "75019",
          "state": null,
          "countryCode": "FR"
        },
        "website": "https://piscine-georgeshermant.fr/",
        "categories": [
          "Piscine municipale",
          "Piscine couverte",
          "Bassin de natation",
          "Piscine",
          "Professeur de natation"
        ],
        "distance": 2616.940067386754,
        "timeByFoot": "32:43"
      },
      {
        "url": "https://www.google.fr/maps/place/Piscine+Alfred+Nakache/@48.8714724,2.3768841,17z/data=!3m2!4b1!5s0x47e66de61af80821:0x4cd198a9b030a1b4!4m5!3m4!1s0x47e66de56cabb9ab:0xd9dc71cb34af30a4!8m2!3d48.8714689!4d2.3790728",
        "title": "Piscine Alfred Nakache",
        "openingHours": [
          {
            "day": "samedi",
            "hours": "10:00 to 13:30, 14:30 to 17:30"
          },
          {
            "day": "dimanche",
            "hours": "10:00 to 13:30, 14:30 to 17:30"
          },
          {
            "day": "lundi",
            "hours": "Ferm√©"
          },
          {
            "day": "mardi",
            "hours": "10:00 to 13:30, 14:30 to 17:30"
          },
          {
            "day": "mercredi",
            "hours": "10:00 to 13:30, 14:30 to 17:30"
          },
          {
            "day": "jeudi",
            "hours": "10:00 to 13:30, 14:30 to 21:30"
          },
          {
            "day": "vendredi",
            "hours": "10:00 to 13:30, 14:30 to 17:30"
          }
        ],
        "images": [
          "https://lh5.googleusercontent.com/p/AF1QipO-R8UlZBU29vyqhu6eCtj7AYt5NKSdYUXKKkXj=w1920-h1080-k-no",
          "https://lh5.googleusercontent.com/p/AF1QipMldKtipxG7QCaO5IewuxNCyC4XUXMBy1z6RP97=w1920-h1080-k-no",
          "https://lh5.googleusercontent.com/p/AF1QipPrQxxYE7RN-C3WCbkI7kVko6lJx4a38060Kwqd=w1920-h1080-k-no",
          "https://lh5.googleusercontent.com/p/AF1QipNgVC6KAb-suww0FFNjtnWEzFTg8PEKIVGV7GXk=w1920-h1080-k-no",
          "https://lh5.googleusercontent.com/p/AF1QipOBEocQEWdpdfr96MfXoDsm1GGHAmx-Z4w-twJr=w1920-h1080-k-no"
        ],
        "placeId": "ChIJq7mrbOVt5kcRpDCvNMtx3Nk",
        "coords": {
          "lat": 48.871468899999996,
          "lng": 2.3790728
        },
        "addressParsed": {
          "neighborhood": "4-12 Rue Denoyez",
          "street": "4-12 Rue Denoyez",
          "city": "Paris",
          "postalCode": "75020",
          "state": null,
          "countryCode": "FR"
        },
        "website": "https://www.paris.fr/equipements/piscine-alfred-nakache-4012",
        "categories": ["Piscine couverte", "Piscine"],
        "distance": 1285.5508436273542,
        "timeByFoot": "16:04"
      },
      {
        "url": "https://www.google.fr/maps/place/Centre+Aquatique+d'Alfortville/@48.8011955,2.4142216,17z/data=!3m1!4b1!4m5!3m4!1s0x47e6730e5ae0b07f:0x6fae9682f474a3cb!8m2!3d48.801192!4d2.4164103",
        "title": "Centre Aquatique d'Alfortville",
        "openingHours": [
          {
            "day": "samedi",
            "hours": "09:00 to 13:00, 14:00 to 18:00"
          },
          {
            "day": "dimanche",
            "hours": "09:00 to 13:00, 14:00 to 18:00"
          },
          {
            "day": "lundi",
            "hours": "12:00 to 14:00, 17:00 to 20:00"
          },
          {
            "day": "mardi",
            "hours": "12:00 to 14:00, 17:00 to 21:30"
          },
          {
            "day": "mercredi",
            "hours": "11:00 to 19:00"
          },
          {
            "day": "jeudi",
            "hours": "12:00 to 14:00, 17:00 to 20:00"
          },
          {
            "day": "vendredi",
            "hours": "12:00 to 14:00, 17:00 to 21:30"
          }
        ],
        "images": [
          "https://lh5.googleusercontent.com/p/AF1QipMMbyg-LhQoC5zi8cvjha_9ulEubWH-_m9_LCGo=w1920-h1080-k-no",
          "https://lh5.googleusercontent.com/p/AF1QipPnUixI2irBk7G89kI-VSyEWRRVMtN2POy7g0oO=w1920-h1080-k-no",
          "https://lh5.googleusercontent.com/p/AF1QipNJZNfFhITq40Z2tSzOhdbE1iQg6snY8qftmb3L=w1920-h1080-k-no",
          "https://lh5.googleusercontent.com/p/AF1QipOPB_XAZVfEdKkfK-x-Ng7X5YWCYRmF2QisH_4q=w1920-h1080-k-no",
          "https://lh5.googleusercontent.com/p/AF1QipNkx9oCtjza2cYnUrxziBSXmPrMUkxM5BVWX6ml=w1920-h1080-k-no"
        ],
        "placeId": "ChIJf7DgWg5z5kcRy6N09IKWrm8",
        "coords": {
          "lat": 48.801192,
          "lng": 2.4164103
        },
        "addressParsed": {
          "neighborhood": "50 Quai Blanqui",
          "street": "50 Quai Blanqui",
          "city": "Alfortville",
          "postalCode": "94140",
          "state": null,
          "countryCode": "FR"
        },
        "website": "https://www.vert-marine.com/alfortville/",
        "categories": [
          "Piscine couverte",
          "Centre aquatique",
          "Centre de fitness",
          "Spa",
          "√âcole de natation"
        ],
        "distance": 7075.443932111589,
        "timeByFoot": "88:27"
      }
    ]
  }
]
